[
  {
    "name": "район Арбат",
    "lat": 55.751096521339235,
    "lng": 37.58939584982036
  },
  {
    "name": "Басманный район",
    "lat": 55.76662557039156,
    "lng": 37.668937291395714
  },
  {
    "name": "район Замоскворечье",
    "lat": 55.73356455658338,
    "lng": 37.63370535666092
  },
  {
    "name": "Красносельский район",
    "lat": 55.77793779722476,
    "lng": 37.65449206922497
  },
  {
    "name": "Мещанский район",
    "lat": 55.77998012640107,
    "lng": 37.628752182621554
  },
  {
    "name": "Пресненский район",
    "lat": 55.76045075065752,
    "lng": 37.56198715975814
  },
  {
    "name": "Таганский район",
    "lat": 55.7410227062675,
    "lng": 37.66484019984116
  },
  {
    "name": "Тверской район",
    "lat": 55.77011212486627,
    "lng": 37.60669047038619
  },
  {
    "name": "район Хамовники",
    "lat": 55.75824757224174,
    "lng": 37.60888168000858
  },
  {
    "name": "район Якиманка",
    "lat": 55.72942898041006,
    "lng": 37.60942891172384
  },
  {
    "name": "район Аэропорт",
    "lat": 55.80268313214321,
    "lng": 37.54045260548123
  },
  {
    "name": "район Беговой",
    "lat": 55.78484631167344,
    "lng": 37.56631249330172
  },
  {
    "name": "Бескудниковский район",
    "lat": 55.86383431925272,
    "lng": 37.55025468770303
  },
  {
    "name": "Войковский район",
    "lat": 55.82682848643138,
    "lng": 37.49780582474846
  },
  {
    "name": "район Восточное Дегунино",
    "lat": 55.87533514136688,
    "lng": 37.55963631821411
  },
  {
    "name": "Головинский район",
    "lat": 55.84707855218129,
    "lng": 37.51141782948126
  },
  {
    "name": "Дмитровский район",
    "lat": 55.8902771027915,
    "lng": 37.53097598849419
  },
  {
    "name": "район Западное Дегунино",
    "lat": 55.87175869420439,
    "lng": 37.51714391329752
  },
  {
    "name": "район Коптево",
    "lat": 55.8313023011954,
    "lng": 37.52893271948636
  },
  {
    "name": "район Левобережный",
    "lat": 55.867560633362984,
    "lng": 37.46272744397129
  },
  {
    "name": "Молжаниновский район",
    "lat": 55.93761971154739,
    "lng": 37.37739639576341
  },
  {
    "name": "Савёловский район",
    "lat": 55.801017194973106,
    "lng": 37.56926855425553
  },
  {
    "name": "район Сокол",
    "lat": 55.80385102513833,
    "lng": 37.50643401719299
  },
  {
    "name": "Тимирязевский район",
    "lat": 55.83024633292825,
    "lng": 37.554246312857245
  },
  {
    "name": "район Ховрино",
    "lat": 55.86951161988625,
    "lng": 37.489507646926945
  },
  {
    "name": "Хорошёвский район",
    "lat": 55.77999165985526,
    "lng": 37.5258664227435
  },
  {
    "name": "Алексеевский район",
    "lat": 55.81090572956289,
    "lng": 37.65107513490716
  },
  {
    "name": "Алтуфьевский район",
    "lat": 55.872539323857865,
    "lng": 37.58644209702934
  },
  {
    "name": "Бабушкинский район",
    "lat": 55.868056307367915,
    "lng": 37.66386211883671
  },
  {
    "name": "район Бибирево",
    "lat": 55.89761264547229,
    "lng": 37.60883480582741
  },
  {
    "name": "Бутырский район",
    "lat": 55.793356914124935,
    "lng": 37.599962479452294
  },
  {
    "name": "район Лианозово",
    "lat": 55.900790952161294,
    "lng": 37.56838735787856
  },
  {
    "name": "Лосиноостровский район",
    "lat": 55.87993400700142,
    "lng": 37.69126555271931
  },
  {
    "name": "район Марфино",
    "lat": 55.83445690260098,
    "lng": 37.58882115314872
  },
  {
    "name": "район Марьина Роща",
    "lat": 55.79732035981781,
    "lng": 37.611745686991355
  },
  {
    "name": "Останкинский район",
    "lat": 55.82906472626363,
    "lng": 37.61841865377779
  },
  {
    "name": "район Отрадное",
    "lat": 55.86255844497563,
    "lng": 37.601724417607635
  },
  {
    "name": "район Ростокино",
    "lat": 55.83420965570351,
    "lng": 37.65394073234786
  },
  {
    "name": "район Свиблово",
    "lat": 55.85113312096856,
    "lng": 37.64817930146261
  },
  {
    "name": "район Северное Медведково",
    "lat": 55.887665532636284,
    "lng": 37.65871423540389
  },
  {
    "name": "район Северный",
    "lat": 55.93280374799584,
    "lng": 37.54709911378001
  },
  {
    "name": "район Южное Медведково",
    "lat": 55.87324037239848,
    "lng": 37.62208749859281
  },
  {
    "name": "Ярославский район",
    "lat": 55.85589311065602,
    "lng": 37.699987622015854
  },
  {
    "name": "район Богородское",
    "lat": 55.8189217814039,
    "lng": 37.703893425526424
  },
  {
    "name": "район Вешняки",
    "lat": 55.73068316748512,
    "lng": 37.81519971729229
  },
  {
    "name": "район Восточное Измайлово",
    "lat": 55.795865531641425,
    "lng": 37.821664864482
  },
  {
    "name": "район Восточный",
    "lat": 56.01907989841705,
    "lng": 37.7721599188319
  },
  {
    "name": "район Гольяново",
    "lat": 55.82355532323974,
    "lng": 37.79521590121626
  },
  {
    "name": "район Ивановское",
    "lat": 55.7714542603978,
    "lng": 37.825207659106425
  },
  {
    "name": "район Измайлово",
    "lat": 55.78554556689111,
    "lng": 37.77404672007858
  },
  {
    "name": "район Косино-Ухтомский",
    "lat": 55.721050035459,
    "lng": 37.87067250031863
  },
  {
    "name": "район Метрогородок",
    "lat": 55.8433833310716,
    "lng": 37.74590484209613
  },
  {
    "name": "район Новогиреево",
    "lat": 55.748526814793514,
    "lng": 37.80285883771957
  },
  {
    "name": "район Новокосино",
    "lat": 55.739655200755934,
    "lng": 37.85366524487058
  },
  {
    "name": "район Перово",
    "lat": 55.75228783291433,
    "lng": 37.76678383020918
  },
  {
    "name": "район Преображенское",
    "lat": 55.797177980440296,
    "lng": 37.721075760124634
  },
  {
    "name": "район Северное Измайлово",
    "lat": 55.806989890536244,
    "lng": 37.80705743606919
  },
  {
    "name": "район Соколиная Гора",
    "lat": 55.77893420220848,
    "lng": 37.72873023662586
  },
  {
    "name": "район Сокольники",
    "lat": 55.80005382324249,
    "lng": 37.67785663137356
  },
  {
    "name": "район Выхино-Жулебино",
    "lat": 55.69566056362987,
    "lng": 37.82443279714345
  },
  {
    "name": "район Капотня",
    "lat": 55.65048476032688,
    "lng": 37.81462459870191
  },
  {
    "name": "район Кузьминки",
    "lat": 55.698280043856435,
    "lng": 37.77456639948601
  },
  {
    "name": "район Лефортово",
    "lat": 55.75421551101531,
    "lng": 37.70471887995956
  },
  {
    "name": "район Люблино",
    "lat": 55.671566754661086,
    "lng": 37.77781957281382
  },
  {
    "name": "район Марьино",
    "lat": 55.65587231621648,
    "lng": 37.755030618689545
  },
  {
    "name": "район Некрасовка",
    "lat": 55.75496183237082,
    "lng": 38.02016890418572
  },
  {
    "name": "Нижегородский район",
    "lat": 55.73190266501367,
    "lng": 37.72106101164695
  },
  {
    "name": "район Печатники",
    "lat": 55.67382750109039,
    "lng": 37.68362413892764
  },
  {
    "name": "Рязанский район",
    "lat": 55.72073305356317,
    "lng": 37.769683679976374
  },
  {
    "name": "район Текстильщики",
    "lat": 55.70782872510531,
    "lng": 37.73570644958913
  },
  {
    "name": "Южнопортовый район",
    "lat": 55.7147412257517,
    "lng": 37.67628161748008
  },
  {
    "name": "район Бирюлёво Восточное",
    "lat": 55.60391448704512,
    "lng": 37.677013852835465
  },
  {
    "name": "район Бирюлёво Западное",
    "lat": 55.584320910084294,
    "lng": 37.63599486748025
  },
  {
    "name": "район Братеево",
    "lat": 55.633019625155306,
    "lng": 37.764243365200265
  },
  {
    "name": "Даниловский район",
    "lat": 55.706499606538095,
    "lng": 37.64286958546874
  },
  {
    "name": "Донской район",
    "lat": 55.704529992591354,
    "lng": 37.606260627329085
  },
  {
    "name": "район Зябликово",
    "lat": 55.62325304781282,
    "lng": 37.74183367533999
  },
  {
    "name": "район Москворечье-Сабурово",
    "lat": 55.642865252677915,
    "lng": 37.67109365369861
  },
  {
    "name": "район Нагатино-Садовники",
    "lat": 55.669462379801736,
    "lng": 37.638322068087255
  },
  {
    "name": "район Нагатинский Затон",
    "lat": 55.68257859287805,
    "lng": 37.68393454436605
  },
  {
    "name": "Нагорный район",
    "lat": 55.66304411711517,
    "lng": 37.61427676786435
  },
  {
    "name": "район Орехово-Борисово Северное",
    "lat": 55.62026657893099,
    "lng": 37.70146409027419
  },
  {
    "name": "район Орехово-Борисово Южное",
    "lat": 55.606372823650496,
    "lng": 37.73866904406314
  },
  {
    "name": "район Царицыно",
    "lat": 55.62717902601403,
    "lng": 37.64848249970519
  },
  {
    "name": "район Чертаново Северное",
    "lat": 55.632193535876816,
    "lng": 37.60479080717339
  },
  {
    "name": "район Чертаново Центральное",
    "lat": 55.614393403476534,
    "lng": 37.60769161402178
  },
  {
    "name": "район Чертаново Южное",
    "lat": 55.58564593029468,
    "lng": 37.59402260825356
  },
  {
    "name": "Академический район",
    "lat": 55.69335663833392,
    "lng": 37.58363629692022
  },
  {
    "name": "Гагаринский район",
    "lat": 55.69813720214026,
    "lng": 37.55880290432166
  },
  {
    "name": "район Зюзино",
    "lat": 55.65323618687141,
    "lng": 37.59379603490743
  },
  {
    "name": "район Коньково",
    "lat": 55.64218507789171,
    "lng": 37.52378946470139
  },
  {
    "name": "район Котловка",
    "lat": 55.669729359006034,
    "lng": 37.5924218199469
  },
  {
    "name": "Ломоносовский район",
    "lat": 55.678005574809966,
    "lng": 37.53709756086003
  },
  {
    "name": "Обручевский район",
    "lat": 55.65905705497573,
    "lng": 37.518839768563524
  },
  {
    "name": "район Северное Бутово",
    "lat": 55.56899105728742,
    "lng": 37.57015058354548
  },
  {
    "name": "район Тёплый Стан",
    "lat": 55.63014982252441,
    "lng": 37.48571928275603
  },
  {
    "name": "район Черёмушки",
    "lat": 55.69425720359821,
    "lng": 37.56590071941849
  },
  {
    "name": "район Южное Бутово",
    "lat": 55.53183038943169,
    "lng": 37.548621040481734
  },
  {
    "name": "район Ясенево",
    "lat": 55.61397417477889,
    "lng": 37.54816347170344
  },
  {
    "name": "район Дорогомилово",
    "lat": 55.73907821124616,
    "lng": 37.536868887795265
  },
  {
    "name": "район Внуково",
    "lat": 55.598745717562785,
    "lng": 37.24796846184693
  },
  {
    "name": "район Крылатское",
    "lat": 55.76385683834549,
    "lng": 37.42326730777554
  },
  {
    "name": "район Кунцево",
    "lat": 55.740094481265956,
    "lng": 37.18976935396127
  },
  {
    "name": "Можайский район",
    "lat": 55.70829216224954,
    "lng": 37.396145334351374
  },
  {
    "name": "Ново-Переделкино",
    "lat": 55.62020261088682,
    "lng": 37.338927440671625
  },
  {
    "name": "район Очаково-Матвеевское",
    "lat": 55.698915874233414,
    "lng": 37.45045609386379
  },
  {
    "name": "район Проспект Вернадского",
    "lat": 55.676284004161126,
    "lng": 37.50115946739651
  },
  {
    "name": "район Раменки",
    "lat": 55.70983614779394,
    "lng": 37.51977514623564
  },
  {
    "name": "район Солнцево",
    "lat": 55.65620853155369,
    "lng": 37.40651081869516
  },
  {
    "name": "Тропарёво-Никулино",
    "lat": 55.66010204983012,
    "lng": 37.467526206203054
  },
  {
    "name": "район Филёвский Парк",
    "lat": 55.749758329715775,
    "lng": 37.482834528027105
  },
  {
    "name": "район Фили-Давыдково",
    "lat": 55.71974738824888,
    "lng": 37.45993613630758
  },
  {
    "name": "район Куркино",
    "lat": 55.89081906711801,
    "lng": 37.38995408852984
  },
  {
    "name": "район Митино",
    "lat": 55.84548898771317,
    "lng": 37.366181112680536
  },
  {
    "name": "район Покровское-Стрешнево",
    "lat": 55.82651421057486,
    "lng": 37.450168512988085
  },
  {
    "name": "район Северное Тушино",
    "lat": 55.86080134154249,
    "lng": 37.43164605579928
  },
  {
    "name": "район Строгино",
    "lat": 55.79688743470896,
    "lng": 37.404067145647566
  },
  {
    "name": "район Хорошёво-Мнёвники",
    "lat": 55.77290239144276,
    "lng": 37.464191741893536
  },
  {
    "name": "район Щукино",
    "lat": 55.8007420574688,
    "lng": 37.47382798042048
  },
  {
    "name": "район Южное Тушино",
    "lat": 55.842964069071144,
    "lng": 37.42988159880148
  },
  {
    "name": "район Крюково",
    "lat": 55.96975300566365,
    "lng": 37.176584556447004
  },
  {
    "name": "район Матушкино",
    "lat": 56.005226626315945,
    "lng": 37.20408815349629
  },
  {
    "name": "район Савёлки",
    "lat": 55.98621616448837,
    "lng": 37.2305239885059
  },
  {
    "name": "район Силино",
    "lat": 55.994940331131176,
    "lng": 37.18468286959803
  },
  {
    "name": "район Старое Крюково",
    "lat": 55.98083690326471,
    "lng": 37.200603593394895
  },
  {
    "name": "городской округ Щербинка",
    "lat": 55.505192932683656,
    "lng": 37.55147235018595
  },
  {
    "name": "поселение Внуковское",
    "lat": 55.63369144468967,
    "lng": 37.28728617155311
  },
  {
    "name": "поселение Воскресенское",
    "lat": 55.51197659343328,
    "lng": 37.4918165560912
  },
  {
    "name": "поселение Десёновское",
    "lat": 55.491980648639675,
    "lng": 37.37771245401236
  },
  {
    "name": "поселение Кокошкино",
    "lat": 55.6001897948843,
    "lng": 37.16795120339786
  },
  {
    "name": "поселение Марушкинское",
    "lat": 55.5774866112907,
    "lng": 37.18923186701998
  },
  {
    "name": "поселение Московский",
    "lat": 55.60952879624027,
    "lng": 37.369720292322334
  },
  {
    "name": "поселение \"Мосрентген\"",
    "lat": 55.62592253529451,
    "lng": 37.461736462146526
  },
  {
    "name": "поселение Рязановское",
    "lat": 55.47978000971482,
    "lng": 37.50330172474465
  },
  {
    "name": "поселение Сосенское",
    "lat": 55.5724247027111,
    "lng": 37.46287972401166
  },
  {
    "name": "поселение Филимонковское",
    "lat": 55.572806138878384,
    "lng": 37.33034992132363
  },
  {
    "name": "городской округ Троицк",
    "lat": 55.46453200564548,
    "lng": 37.29329621576306
  },
  {
    "name": "поселение Вороновское",
    "lat": 55.322862167612584,
    "lng": 37.13537714213811
  },
  {
    "name": "поселение Киевский",
    "lat": 55.37804381719726,
    "lng": 36.905024052419016
  },
  {
    "name": "поселение Клёновское",
    "lat": 55.29587177209177,
    "lng": 37.345385161909256
  },
  {
    "name": "поселение Краснопахорское",
    "lat": 55.42427319088415,
    "lng": 37.26543890614222
  },
  {
    "name": "поселение Михайлово-Ярцевское",
    "lat": 55.37566237280465,
    "lng": 37.1594830330114
  },
  {
    "name": "поселение Новофёдоровское",
    "lat": 55.24844405278994,
    "lng": 37.34445868055229
  },
  {
    "name": "поселение Первомайское",
    "lat": 55.50180109294892,
    "lng": 37.19811432910547
  },
  {
    "name": "поселение Роговское",
    "lat": 55.24292616228804,
    "lng": 37.03729273614006
  },
  {
    "name": "поселение Щаповское",
    "lat": 55.41797867599258,
    "lng": 37.42996806063806
  }
]